,City,Cloudiness,Country,Date,Humidity,Lat,Lng,Max Temp,Wind Speed
0,Mataura,18,NZ,1586662593,51,-46.19,168.86,72.0,11.99
1,Orcopampa,23,PE,1586662593,21,-15.27,-72.34,44.11,0.92
2,Tadine,19,NC,1586662593,59,-21.55,167.88,80.28,9.01
3,Pochutla,79,MX,1586662593,81,15.74,-96.47,78.01,7.31
4,Talaya,100,RU,1586662593,84,61.38,152.75,22.12,1.83
5,Miquelon,27,PM,1586662593,92,47.1,-56.38,33.33,20.13
6,Korla,41,CN,1586662593,15,41.76,86.15,65.52,2.44
7,Corowa,40,AU,1586662594,59,-36.03,146.38,63.0,10.29
8,Yellowknife,20,CA,1586661900,51,62.46,-114.35,14.0,9.17
9,Rikitea,91,PF,1586662594,77,-23.12,-134.97,78.55,7.2
10,Grosse Pointe Park,1,US,1586662594,57,42.38,-82.94,51.8,6.93
11,Hermanus,100,ZA,1586662594,95,-34.42,19.23,63.0,7.0
12,Torbay,5,CA,1586662594,96,47.67,-52.73,33.01,21.92
13,Puerto Ayora,53,EC,1586662003,87,-0.74,-90.35,79.0,1.99
14,Lavrentiya,97,RU,1586662004,96,65.58,-171.0,32.4,9.89
15,George Town,20,MY,1586661923,63,5.41,100.34,91.4,2.24
16,Charters Towers,0,AU,1586662594,22,-20.1,146.27,88.16,10.27
17,Vaini,40,TO,1586662594,69,-21.2,-175.2,78.8,4.7
18,Albany,1,US,1586662403,90,42.6,-73.97,37.4,8.05
19,Ushuaia,40,AR,1586662594,86,-54.8,-68.3,39.2,6.93
20,Joshīmath,13,IN,1586662595,12,30.57,79.57,64.35,2.33
21,Kapaa,90,US,1586662595,73,22.08,-159.32,78.8,10.29
22,Nyurba,84,RU,1586662595,76,63.28,118.33,36.43,9.48
23,Bluff,20,NZ,1586662002,52,-46.6,168.33,71.01,11.99
24,Ngunguru,98,NZ,1586662595,92,-35.62,174.5,66.99,5.01
25,Mar del Plata,100,AR,1586662441,87,-38.0,-57.56,57.99,4.7
26,Saldanha,100,ZA,1586662595,100,-33.01,17.94,59.0,13.87
27,Berdigestyakh,100,RU,1586662595,83,62.1,126.7,34.05,11.54
28,Sørland,100,NO,1586661725,84,67.67,12.69,33.78,20.54
29,Beidao,0,CN,1586662596,20,34.57,105.89,59.59,4.56
30,Kieta,99,PG,1586662596,74,-6.22,155.63,84.07,4.45
31,Busselton,75,AU,1586662596,37,-33.65,115.33,82.0,9.98
32,Cape Town,75,ZA,1586662567,100,-33.93,18.42,63.0,21.92
33,Blagoyevo,97,RU,1586662596,94,63.37,47.92,21.34,1.79
34,Rome,1,US,1586662564,74,43.21,-75.46,33.01,3.36
35,Pevek,6,RU,1586662002,92,69.7,170.31,11.39,13.89
36,New Norfolk,75,AU,1586662596,55,-42.78,147.06,61.0,12.75
37,Jishui,0,CN,1586662596,29,33.73,115.4,66.27,16.78
38,Souillac,40,MU,1586661938,83,-20.52,57.52,80.01,14.99
39,Cabedelo,20,BR,1586662596,94,-6.98,-34.83,77.0,3.36
40,Butaritari,98,KI,1586662596,75,3.07,172.79,83.01,10.04
41,Hilo,90,US,1586662437,61,19.73,-155.09,80.6,4.7
42,Saskylakh,0,RU,1586662011,91,71.92,114.08,4.95,7.52
43,Whitehorse,5,CA,1586661724,27,60.72,-135.05,41.0,3.36
44,Mossamedes,31,AO,1586662011,66,-15.2,12.15,75.83,5.12
45,Saurimo,99,AO,1586662597,71,-9.66,20.39,62.37,5.26
46,Miraflores,5,MX,1586662597,21,19.22,-98.81,71.6,9.17
47,Yangi Marg`ilon,66,UZ,1586662597,62,40.43,71.72,57.2,4.7
48,Cherskiy,80,RU,1586661998,96,68.75,161.3,23.36,15.97
49,Ribeira Grande,0,PT,1586662597,74,38.52,-28.7,60.96,5.37
50,Denizli Province,4,TR,1586662597,74,37.84,29.07,37.4,3.71
51,Avarua,100,CK,1586662598,89,-21.21,-159.78,84.2,2.24
52,Punta Arenas,75,CL,1586662598,87,-53.15,-70.92,42.8,5.82
53,Fairbanks,90,US,1586662493,48,64.84,-147.72,46.4,3.36
54,Hong Kong,7,HK,1586661975,43,22.29,114.16,73.0,16.11
55,Bambous Virieux,40,MU,1586662598,83,-20.34,57.76,80.01,14.99
56,Berlevåg,100,NO,1586661784,73,70.86,29.09,24.8,14.99
57,Chui,0,UY,1586662598,79,-33.7,-53.46,60.82,6.06
58,Talnakh,40,RU,1586662002,79,69.49,88.4,23.0,35.79
59,Kyshtovka,43,RU,1586662598,80,56.55,76.63,37.31,7.02
60,Bandar-e Lengeh,100,IR,1586662572,83,26.56,54.88,78.8,18.34
61,Mehamn,100,NO,1586662598,73,71.04,27.85,24.8,14.99
62,Holland,90,US,1586662343,76,42.79,-86.11,52.0,3.36
63,East London,100,ZA,1586662598,77,-33.02,27.91,69.8,9.17
64,Henties Bay,3,NA,1586662598,86,-22.12,14.28,64.0,1.99
65,Gimli,80,CA,1586662493,61,50.63,-96.99,28.99,8.01
66,Bethel,1,US,1586662599,69,41.37,-73.41,46.0,4.7
67,Praia da Vitória,40,PT,1586662599,82,38.73,-27.07,60.8,11.41
68,Alice Springs,66,AU,1586662022,12,-23.7,133.88,86.0,5.82
69,Kuching,40,MY,1586662599,74,1.55,110.33,87.8,3.36
70,Leningradskiy,85,RU,1586662599,91,69.38,178.42,18.28,4.36
71,Saint George,1,US,1586662540,34,37.1,-113.58,64.4,8.05
72,Geraldton,75,AU,1586662003,65,-28.77,114.6,82.99,10.29
73,Iquique,90,CL,1586662599,68,-20.22,-70.14,71.6,13.87
74,Alta Floresta,100,BR,1586662599,89,-9.88,-56.09,72.79,2.24
75,Port Elizabeth,60,ZA,1586662338,45,-33.92,25.57,68.0,14.99
76,Salekhard,73,RU,1586662599,93,66.53,66.6,12.65,3.65
77,Ahipara,79,NZ,1586662599,73,-35.17,173.17,68.9,20.09
78,Barrow,90,US,1586662599,92,71.29,-156.79,26.6,18.34
79,Faanui,8,PF,1586662600,73,-16.48,-151.75,82.62,13.2
80,Quelimane,20,MZ,1586662600,94,-17.88,36.89,71.6,3.36
81,Khatanga,100,RU,1586662600,97,71.97,102.5,17.96,11.74
82,Vardø,48,NO,1586662600,94,70.37,31.11,26.17,10.33
83,Port Blair,100,IN,1586662600,72,11.67,92.75,83.19,7.54
84,Galesong,20,ID,1586662600,70,-5.32,119.37,87.8,5.82
85,Port Moresby,40,PG,1586662600,70,-9.44,147.18,87.8,13.87
86,Alekseyevsk,4,RU,1586662600,62,57.84,108.35,40.73,4.03
87,Kushima,75,JP,1586662601,93,31.46,131.23,57.2,6.93
88,Dhārchula,0,IN,1586662601,12,29.85,80.53,73.85,2.33
89,Samarai,81,PG,1586662601,59,-10.62,150.67,83.52,7.87
90,Mayo,1,US,1586662601,70,38.89,-76.51,52.0,2.28
91,Lebu,0,CL,1586662601,74,-37.62,-73.65,51.85,13.51
92,Pisco,40,PE,1586662601,78,-13.7,-76.22,73.4,2.24
93,Oshakati,48,NA,1586662549,94,-17.78,15.68,68.0,2.24
94,Marawi,23,PH,1586662601,40,8.0,124.29,84.78,4.5
95,Hobart,75,AU,1586662601,55,-42.88,147.33,61.0,12.75
96,Kota Belud,20,MY,1586662601,66,6.35,116.43,89.6,5.82
97,Chokurdakh,100,RU,1586662007,97,70.63,147.92,29.89,12.95
98,Buin,75,CL,1586662602,72,-33.73,-70.75,59.0,5.82
99,Atuona,44,PF,1586662602,65,-9.8,-139.03,82.96,5.41
100,Kruisfontein,100,ZA,1586662602,54,-34.0,24.73,60.84,8.32
101,Tari,9,NG,1586662602,21,12.41,4.49,84.6,7.9
102,Ancud,0,CL,1586662602,100,-41.87,-73.82,37.4,4.7
103,Arraial do Cabo,79,BR,1586662602,76,-22.97,-42.03,72.41,5.82
104,Luang Prabang,90,LA,1586662602,88,19.89,102.13,73.4,2.24
105,Lata,75,PT,1586661943,93,40.16,-8.33,57.0,5.82
106,Vizinga,100,RU,1586662602,95,61.07,50.1,23.32,4.63
107,Qaanaaq,100,GL,1586662602,72,77.48,-69.36,12.18,5.19
108,Airai,97,TL,1586662002,69,-8.93,125.41,66.65,0.94
109,Newport,7,GB,1586662514,81,51.59,-3.0,52.0,3.36
110,Aripuanã,100,BR,1586662602,92,-9.17,-60.63,74.12,1.92
111,Kuusamo,86,FI,1586662401,85,65.97,29.18,12.2,4.7
112,Zuénoula,39,CI,1586662603,84,7.43,-6.04,74.79,3.33
113,Tuktoyaktuk,20,CA,1586662603,77,69.45,-133.04,6.8,10.29
114,Nago,90,JP,1586662324,77,26.59,127.98,66.2,20.8
115,Tiksi,94,RU,1586662603,90,71.69,128.87,6.48,19.98
116,Bengkulu,45,ID,1586662603,62,-3.8,102.27,88.03,3.83
117,Haines Junction,0,CA,1586662603,72,60.75,-137.51,30.22,2.66
118,Tasiilaq,99,GL,1586662603,58,65.61,-37.64,26.6,17.22
119,Esperance,100,AU,1586662603,16,-33.87,121.9,95.0,20.8
120,Necochea,95,AR,1586662603,89,-38.55,-58.74,59.0,3.0
121,Atar,0,MR,1586662603,22,20.52,-13.05,77.05,11.99
122,Port-Cartier,20,CA,1586662603,54,50.03,-66.87,32.0,5.82
123,Xambioá,100,BR,1586662603,91,-6.41,-48.54,74.12,1.16
124,Thompson,90,CA,1586662603,78,55.74,-97.86,15.8,12.75
125,Riverton,75,US,1586662603,81,40.52,-111.94,57.2,9.17
126,Kibala,99,TD,1586662604,78,9.11,18.35,73.4,3.51
127,Hithadhoo,15,MV,1586662340,67,-0.6,73.08,84.51,7.9
128,Verkhnyaya Sinyachikha,89,RU,1586662604,80,57.98,61.67,40.8,5.39
129,Fare,60,PF,1586662604,70,-16.7,-151.02,83.44,10.96
130,Viedma,100,AR,1586661746,55,-40.81,-63.0,52.57,5.19
131,Zambezi,29,ZM,1586662012,71,-13.54,23.1,62.51,4.43
132,Puerto Escondido,92,MX,1586662604,73,15.85,-97.07,79.3,3.71
133,Tuatapere,32,NZ,1586662604,51,-46.13,167.68,72.0,11.99
134,Zaozyornoye,0,UA,1586662604,66,45.16,33.28,45.19,8.46
135,Castro,32,BR,1586662604,73,-24.79,-50.01,55.18,5.53
136,Nālūt,0,LY,1586662306,29,30.33,10.85,61.56,12.71
137,Padang,48,ID,1586662308,61,-0.95,100.35,87.93,1.23
138,Severo-Kuril'sk,70,RU,1586661724,95,50.68,156.12,31.15,7.27
139,Kahului,40,US,1586662005,61,20.89,-156.47,80.6,12.75
140,San Cristobal,65,VE,1586662604,61,7.77,-72.22,68.31,2.24
141,Dikson,100,RU,1586662605,96,73.51,80.55,14.99,9.95
142,Beringovskiy,98,RU,1586661874,94,63.05,179.32,14.68,10.31
143,High Level,75,CA,1586662605,54,58.52,-117.14,28.4,3.36
144,Cidreira,23,BR,1586662605,71,-30.18,-50.21,64.42,3.24
145,Ayagoz,0,KZ,1586662605,43,47.97,80.44,45.61,4.45
146,Katangli,97,RU,1586662605,90,51.71,143.23,34.0,10.49
147,San Policarpo,70,PH,1586662605,65,12.18,125.51,82.42,4.5
148,Eyl,17,SO,1586662605,73,7.98,49.82,82.33,7.11
149,San Lazaro,1,BZ,1586662605,95,18.04,-88.66,74.05,4.0
150,Cravo Norte,100,CO,1586662605,65,6.3,-70.2,83.1,0.47
151,Celestún,0,MX,1586662606,80,20.87,-90.4,80.17,14.14
152,Banda Aceh,60,ID,1586662606,68,5.56,95.32,85.78,4.81
153,Kavaratti,20,IN,1586662606,74,10.57,72.64,86.0,4.7
154,Kirillov,0,RU,1586662606,91,59.86,38.38,26.24,3.56
155,Port Hedland,20,AU,1586662606,46,-20.32,118.57,91.4,13.87
156,Marquette,90,US,1586662606,52,46.53,-87.63,41.0,6.93
157,Bredasdorp,100,ZA,1586662606,64,-34.53,20.04,68.0,14.99
158,Iaciara,100,BR,1586662606,80,-14.1,-46.63,71.11,2.24
159,Bacolod City,4,PH,1586662606,54,10.67,122.95,87.89,2.86
160,Mount Gambier,90,AU,1586662020,67,-37.83,140.77,57.2,9.17
161,Carnarvon,7,AU,1586662606,69,-24.87,113.63,82.4,20.8
162,Sheridan,90,US,1586662607,79,44.83,-106.92,24.8,9.17
163,Tabou,24,CI,1586662607,85,4.42,-7.35,78.3,1.86
164,Sagua de Tánamo,0,CU,1586662607,79,20.58,-75.24,73.09,4.99
165,Gohpur,75,IN,1586662607,73,26.88,93.63,75.2,4.7
166,Olinda,20,BR,1586662607,74,-8.01,-34.86,84.2,4.7
167,Coahuayana Viejo,55,MX,1586662607,78,18.73,-103.68,73.89,3.98
168,Novobiryusinskiy,0,RU,1586662607,58,56.96,97.71,42.76,4.76
169,Abadan,90,TM,1586662607,87,38.05,58.21,51.8,4.7
170,Sulangan,13,PH,1586662607,69,11.14,123.72,82.94,6.55
171,Kavieng,95,PG,1586662010,69,-2.57,150.8,84.36,3.56
172,Waddān,0,LY,1586662607,30,29.16,16.14,60.3,8.84
173,Gambo,100,CF,1586662607,84,4.65,22.26,71.08,1.36
174,Grand Gaube,40,MU,1586662607,83,-20.01,57.66,80.01,14.99
175,Natal,20,BR,1586662010,94,-5.79,-35.21,77.0,3.36
176,Bairiki Village,75,KI,1586662608,70,1.33,172.98,87.8,8.05
177,Iqaluit,90,CA,1586662608,79,63.75,-68.51,23.0,14.99
178,Lyambir',100,RU,1586662608,90,54.28,45.12,31.53,25.21
179,Rafaela,78,AR,1586662608,54,-31.25,-61.49,61.0,1.01
180,Hobyo,22,SO,1586662022,72,5.35,48.53,82.49,8.08
181,Bowen,0,AU,1586662608,36,-20.02,148.23,93.2,5.82
182,Constitución,75,CL,1586662608,81,-35.33,-72.42,52.57,10.02
183,Bac Lieu,16,VN,1586662384,54,9.29,105.72,87.75,8.97
184,Longyearbyen,20,SJ,1586662489,69,78.22,15.64,-9.4,4.81
185,Bubaque,1,GW,1586662522,77,11.28,-15.83,77.97,10.51
186,Andros Town,75,BS,1586662608,83,24.7,-77.77,77.0,11.41
187,Saint-Augustin,75,CA,1586662017,97,51.23,-58.65,27.97,6.42
188,Saint Paul Harbor,90,US,1586662609,86,57.79,-152.41,37.4,20.8
189,Codrington,95,AU,1586662021,59,-38.27,141.97,58.06,10.25
190,Magadan,98,RU,1586662415,90,59.57,150.8,23.67,3.71
191,Singkawang,83,ID,1586662609,61,0.9,109.0,87.26,4.14
192,Jamestown,1,US,1586662465,55,42.1,-79.24,39.0,5.82
193,Clyde River,75,CA,1586662609,84,70.47,-68.59,1.4,14.99
194,Yuncheng,0,CN,1586662609,24,35.02,110.99,62.29,5.86
195,Lieksa,35,FI,1586662609,92,63.32,30.02,24.91,4.94
196,Ponta do Sol,20,PT,1586662609,77,32.67,-17.1,60.8,6.93
197,Saint-Pierre,18,RE,1586662609,73,-21.34,55.48,75.99,6.93
198,Manāsa,0,IN,1586662609,20,24.48,75.27,88.14,7.94
199,Cabo San Lucas,40,MX,1586662609,60,22.89,-109.91,68.0,11.41
200,Saint-Philippe,22,RE,1586662609,73,-21.36,55.77,75.99,6.93
201,Twin Falls,1,US,1586662610,31,42.56,-114.46,52.0,28.86
202,Shīeli,100,KZ,1586662610,74,44.17,66.75,58.53,5.53
203,Belaya Gora,100,RU,1586662020,98,68.53,146.42,30.79,6.91
204,Terrace,20,CA,1586662447,26,54.52,-128.6,48.2,8.05
205,Sibolga,82,ID,1586662610,57,1.74,98.78,89.02,0.76
206,Arona,40,ES,1586662610,68,28.1,-16.68,66.2,11.41
207,Soyo,100,AO,1586662610,85,-6.13,12.37,80.47,3.24
208,Half Moon Bay,90,US,1586662610,87,37.46,-122.43,57.0,3.36
209,Belyy Yar,0,RU,1586662611,52,53.6,91.39,42.8,11.18
210,Dongying,0,CN,1586662611,28,37.46,118.49,61.83,19.69
211,Karaton,40,ID,1586662611,62,-6.34,106.1,89.01,5.82
212,Nikolskoye,6,RU,1586662611,92,59.7,30.79,23.0,2.24
213,Sturgis,90,US,1586662611,73,41.8,-85.42,55.4,3.36
214,Tessalit,0,ML,1586662471,14,20.2,1.01,77.38,4.32
215,Kudahuvadhoo,0,MV,1586662611,66,2.67,72.89,84.38,5.19
216,Quang Ngai,91,VN,1586662611,74,15.12,108.8,82.76,4.29
217,Sola,95,VU,1586662611,72,-13.88,167.55,81.48,11.88
218,San Patricio,0,MX,1586662611,63,19.22,-104.7,75.4,11.83
219,Soure,100,BR,1586662611,87,-0.72,-48.52,79.56,6.29
220,Nizwá,32,OM,1586662611,37,22.93,57.53,74.79,1.77
221,Port Alfred,37,ZA,1586662612,66,-33.59,26.89,69.01,1.99
222,Fukuechō,75,JP,1586662612,76,32.69,128.84,55.4,14.99
223,Vila Franca do Campo,20,PT,1586662612,82,37.72,-25.43,57.2,12.75
224,Westport,1,US,1586662347,33,41.14,-73.36,51.01,5.82
225,Upernavik,100,GL,1586662612,86,72.79,-56.15,20.37,2.3
226,Naze,75,JP,1586662612,82,28.37,129.48,66.2,17.22
227,Provideniya,100,RU,1586662612,93,64.38,-173.3,32.54,6.29
228,Urengoy,100,RU,1586662612,95,65.97,78.37,23.72,8.25
229,Beloha,100,MG,1586662612,73,-25.17,45.05,71.31,6.82
230,Eloy,1,US,1586662486,62,32.76,-111.55,61.0,5.82
231,Livingston,75,GB,1586662374,81,55.9,-3.52,50.0,8.05
232,Kaili,51,ID,1586662613,66,-3.46,120.21,76.89,2.62
233,Bangassou,100,CF,1586662613,84,4.74,22.82,69.69,0.74
234,Mazagão,75,BR,1586662613,100,-0.12,-51.29,78.8,3.36
235,Kaoma,95,ZM,1586662613,68,-14.78,24.8,62.04,3.62
236,Voh,79,NC,1586662613,67,-20.97,164.7,81.73,5.46
237,Emporia,40,US,1586662613,77,38.4,-96.18,66.0,13.87
238,Birao,84,CF,1586662613,43,10.28,22.79,74.05,3.36
239,Lompoc,90,US,1586662613,81,34.64,-120.46,60.01,9.17
240,Tevriz,57,RU,1586662613,79,57.51,72.4,42.66,3.44
241,Norrköping,100,SE,1586662613,87,58.59,16.18,44.6,9.17
242,Salem,0,IN,1586662514,51,11.65,78.17,81.91,0.16
243,Klaksvík,99,FO,1586662614,69,62.23,-6.59,35.6,29.97
244,Laguna,1,US,1586662569,82,38.42,-121.42,62.01,8.05
245,Kandrian,48,PG,1586662614,79,-6.22,149.55,84.61,8.12
246,Teixoso,51,PT,1586662614,95,40.31,-7.46,55.0,1.61
247,Comodoro Rivadavia,3,AR,1586662614,57,-45.87,-67.5,51.8,3.36
248,Palu,0,ID,1586662607,41,-0.89,119.87,89.96,3.02
249,Lagoa,0,PT,1586662614,78,39.05,-27.98,60.85,10.2
250,Province of Groningen,42,NL,1586662438,86,53.25,6.75,48.99,2.24
251,Margate,17,GB,1586662614,93,51.38,1.39,54.0,5.82
252,Nový Malín,5,CZ,1586662614,60,49.94,17.03,42.01,7.0
253,Katsuura,75,JP,1586662615,66,35.13,140.3,59.0,9.17
254,Luwingu,97,ZM,1586662615,65,-10.26,29.93,60.67,5.41
255,Kuytun,21,RU,1586662615,55,54.34,101.5,39.76,5.57
256,Gizo Government Station,87,SB,1586662615,75,-8.1,156.84,84.13,4.68
257,Coquimbo,76,CL,1586662615,82,-29.95,-71.34,59.0,3.36
258,Podgornoye,75,RU,1586662615,63,51.73,39.15,30.2,15.66
259,Salalah,75,OM,1586662375,74,17.02,54.09,82.4,11.41
260,Ouro Preto do Oeste,99,BR,1586662615,89,-10.75,-62.22,73.67,0.2
261,Bathsheba,40,BB,1586662615,69,13.22,-59.52,80.6,16.11
262,Morant Bay,20,JM,1586662615,74,17.88,-76.41,82.4,4.7
263,Hanna,8,CA,1586662615,74,51.63,-111.9,19.0,3.0
264,Camacha,75,PT,1586662615,82,33.08,-16.33,60.8,13.87
265,Foumban,94,CM,1586662615,63,5.73,10.9,61.16,0.69
266,Asău,14,RO,1586662018,57,46.43,26.4,37.0,3.36
267,Xining,86,CN,1586662616,16,36.62,101.77,47.75,2.62
268,Samarina,98,RU,1586662616,86,57.89,27.81,28.4,4.47
269,Urusha,0,RU,1586662616,49,54.05,122.9,52.05,0.81
270,Hamilton,1,US,1586662616,61,39.18,-84.53,53.6,6.26
271,Buraidah,0,SA,1586662616,48,26.33,43.98,62.6,12.75
272,Muros,90,ES,1586662018,93,42.78,-9.06,55.0,5.97
273,Riyadh,75,SA,1586662490,28,24.69,46.72,71.6,8.05
274,Arlit,23,NE,1586662616,14,18.74,7.39,80.37,8.68
275,Rocha,0,UY,1586662616,86,-34.48,-54.33,55.47,4.43
276,Sabha,0,LY,1586662018,26,27.04,14.43,65.59,15.32
277,Kirkwall,100,GB,1586662342,81,58.98,-2.96,44.6,17.22
278,Banff,88,CA,1586662617,71,51.18,-115.57,15.01,1.01
279,Dicabisagan,11,PH,1586662617,70,17.08,122.42,82.98,1.5
280,Panabá,0,MX,1586662617,76,21.28,-88.27,77.81,11.99
281,Cap Malheureux,40,MU,1586662617,83,-19.98,57.61,80.01,14.99
282,Luancheng,0,CN,1586662617,12,37.88,114.65,71.6,8.95
283,Ouallam,0,NE,1586662617,22,14.32,2.09,81.46,5.64
284,Kapuskasing,75,CA,1586662617,64,49.42,-82.43,35.6,5.82
285,São Gabriel da Cachoeira,100,BR,1586662617,96,-0.13,-67.09,74.39,2.13
286,Zhigansk,71,RU,1586662617,92,66.77,123.37,25.92,15.61
287,Nuuk,100,GL,1586662617,90,64.18,-51.72,35.6,12.75
288,Båtsfjord,99,NO,1586662617,92,70.63,29.72,22.12,6.67
289,Husavik,90,IS,1586662617,74,66.04,-17.34,30.2,19.46
290,Srednekolymsk,33,RU,1586662618,97,67.45,153.68,30.49,10.67
291,Gazalkent,90,UZ,1586662618,93,41.56,69.77,57.2,2.24
292,Pyu,100,MM,1586662618,29,18.48,96.43,92.7,7.36
293,Conceição do Araguaia,98,BR,1586662618,84,-8.26,-49.26,75.31,2.1
294,Dunedin,100,NZ,1586662618,62,-45.87,170.5,64.0,1.99
295,Kralendijk,4,BQ,1586662618,83,12.15,-68.27,80.6,17.22
296,Nador,75,MA,1586662596,87,35.17,-2.93,60.8,4.7
297,Tomari,79,RU,1586662618,79,47.77,142.07,36.75,8.39
298,Bridlington,45,GB,1586662457,93,54.08,-0.19,51.01,2.24
299,Fenoarivo,40,MG,1586662619,93,-18.93,47.44,60.8,5.82
300,Palmer,1,US,1586662619,41,42.16,-72.33,39.99,6.93
301,Lorengau,51,PG,1586662619,71,-2.02,147.27,84.81,2.98
302,Paka,40,MY,1586662619,74,4.64,103.44,87.8,2.24
303,Ponta Delgada,20,PT,1586662619,82,37.73,-25.67,57.2,12.75
304,Rapid Valley,90,US,1586662619,85,44.06,-103.15,26.6,16.11
305,Cabinda,97,AO,1586662619,86,-5.55,12.2,80.31,5.17
306,Câmara de Lobos,20,PT,1586662619,77,32.63,-16.97,60.8,6.93
307,Santa Isabel,75,BR,1586662589,82,-23.32,-46.22,63.0,4.7
308,Praia,23,CV,1586662619,78,14.92,-23.51,73.4,8.05
309,Mana,97,GF,1586662619,83,5.66,-53.78,76.8,8.59
310,Sinnamary,100,GF,1586661933,79,5.38,-52.95,78.96,13.06
311,Yulara,60,AU,1586662020,11,-25.24,130.99,89.6,6.93
312,Oodweyne,49,SO,1586662619,49,9.41,45.06,71.69,9.26
313,Ixtapa,20,MX,1586662022,73,20.7,-105.2,75.2,4.7
314,Zhanakorgan,100,KZ,1586662620,74,43.91,67.25,59.38,10.74
315,Vestmannaeyjar,100,IS,1586662620,83,63.44,-20.27,41.76,14.27
316,Tiarei,100,PF,1586662620,66,-17.53,-149.33,86.0,4.7
317,Rassvet,48,RU,1586662620,69,46.83,40.75,39.85,10.07
318,Barcelos,94,PT,1586662620,100,41.54,-8.62,53.01,2.24
319,Potsdam,90,DE,1586662620,69,52.4,13.07,46.0,1.12
320,Norman Wells,75,CA,1586662620,46,65.28,-126.83,28.4,4.7
321,Pervomays'k,0,UA,1586662382,74,48.04,30.85,36.66,5.53
322,Yeniseysk,0,RU,1586662620,65,58.45,92.17,41.85,4.59
323,Tommot,100,RU,1586662621,80,58.96,126.29,37.13,8.32
324,Morón,25,AR,1586662444,100,-34.65,-58.62,64.99,4.7
325,Yangambi,62,CD,1586662621,87,0.81,24.43,70.63,1.48
326,Port Pirie,42,AU,1586662621,51,-33.18,138.02,62.6,9.17
327,Salina Cruz,67,MX,1586662621,79,16.17,-95.2,81.82,7.43
328,Storforshei,100,NO,1586662621,92,66.4,14.52,27.61,6.85
329,Merauke,76,ID,1586662621,71,-8.47,140.33,86.23,6.51
330,Vila do Maio,46,CV,1586662621,78,15.13,-23.22,73.4,8.05
331,Sooke,1,CA,1586662621,54,48.37,-123.73,52.0,3.36
332,Marshall,1,US,1586662621,66,34.38,-86.33,59.0,4.7
333,Greeley,1,US,1586662622,28,40.42,-104.71,60.8,20.8
334,Şile,0,TR,1586662622,79,41.18,29.61,45.0,7.87
335,Csanádpalota,0,HU,1586662622,69,46.25,20.73,37.4,1.12
336,Eureka,75,US,1586662539,76,40.8,-124.16,52.0,8.03
337,Kaitangata,86,NZ,1586662622,62,-46.28,169.85,64.0,1.99
338,Guerrero Negro,7,MX,1586662622,71,27.98,-114.06,61.11,19.04
339,Qandala,8,SO,1586662622,64,11.47,49.87,82.81,10.02
340,Bud,90,US,1586662477,61,39.45,-86.18,55.0,13.87
341,Forsytheganj,72,BY,1586662622,79,52.63,29.73,32.47,4.59
342,Novyy Svit,5,UA,1586662622,72,47.81,38.02,37.83,11.39
343,Cap-aux-Meules,20,CA,1586662622,95,47.38,-61.86,32.0,8.05
344,Pemberton,0,CA,1586662454,61,50.32,-122.8,38.23,4.27
345,Ekibastuz,97,KZ,1586662622,47,51.67,75.37,47.71,17.94
346,Muş Province,0,TR,1586662622,45,39.0,41.75,33.58,3.96
347,Tateyama,75,JP,1586662623,76,34.98,139.87,59.0,17.22
348,Nome,90,US,1586662623,92,64.5,-165.41,30.2,10.29
349,Bonavista,45,CA,1586662623,85,48.65,-53.11,33.01,14.0
350,Miandrivazo,68,MG,1586662623,76,-19.52,45.47,75.6,2.77
351,Siocon,0,PH,1586662623,65,7.71,122.14,82.71,7.61
352,Chiang Mai,93,TH,1586662355,40,18.79,98.98,97.0,4.7
353,Jinchang,77,CN,1586662623,17,38.5,102.17,51.28,10.6
354,Víctor Rosales,75,MX,1586662623,34,22.95,-102.7,64.4,11.41
355,Miranda,75,CO,1586662624,88,3.25,-76.23,73.4,2.24
356,Bonnyville,20,CA,1586662575,49,54.27,-110.73,24.8,9.17
357,Sarana,100,RU,1586662624,82,56.48,57.73,37.35,6.08
358,Atambua,69,ID,1586662624,71,-9.11,124.89,79.93,5.14
359,Darhan,100,MN,1586662624,24,49.49,105.92,56.86,11.36
360,Ardakān,20,IR,1586662624,62,32.31,54.02,59.0,4.7
361,San Miguel de Tucumán,24,AR,1586662624,82,-26.82,-65.22,66.2,4.7
362,Greer,1,US,1586662536,55,34.94,-82.23,54.0,3.36
363,Bousso,100,TD,1586662624,42,10.48,16.71,78.98,3.6
364,Dunmore East,100,IE,1586662624,62,52.15,-6.99,51.01,1.01
365,Oranjemund,50,NA,1586662625,92,-28.55,16.43,57.96,0.81
366,Wufeng,98,CN,1586662625,46,27.45,104.83,46.4,4.36
367,Severnoye,86,RU,1586662625,83,56.35,78.36,36.21,6.82
368,Departamento de Maldonado,24,UY,1586662625,87,-34.67,-54.92,59.0,5.82
369,Compiègne,67,FR,1586662625,62,49.42,2.83,55.0,1.79
370,Pec,0,XK,1586662625,64,42.66,20.29,39.2,2.24
371,Goderich,83,CA,1586662625,72,43.75,-81.72,43.0,13.82
372,Okakarara,93,NA,1586662625,50,-20.58,17.43,63.18,3.04
373,Nassau,1,US,1586662625,39,40.75,-73.58,51.01,10.63
374,Øksfjord,100,NO,1586662625,68,70.24,22.35,28.4,19.46
375,Tegul'det,0,RU,1586662625,63,57.31,88.17,42.01,5.79
376,Altay,17,CN,1586662625,34,47.87,88.12,49.89,1.92
377,Vao,13,NC,1586662626,75,-22.67,167.48,76.98,12.73
378,Barabai,95,ID,1586662626,87,-2.58,115.38,76.89,1.45
379,Stargard,34,PL,1586662626,69,53.34,15.05,41.0,4.7
380,Channel-Port aux Basques,8,CA,1586662626,97,47.57,-59.14,31.78,18.92
381,Māngrol,17,IN,1586662626,49,21.12,70.12,83.71,11.79
382,Castleisland,75,IE,1586662626,93,52.23,-9.47,48.2,8.05
383,Ulaanbaatar,75,MN,1586662626,9,47.91,106.88,55.4,22.37
384,Grinnell,90,US,1586662626,100,41.74,-92.72,51.8,8.05
385,Caravelas,3,BR,1586662627,86,-17.71,-39.25,78.01,5.01
386,Winnemucca,1,US,1586662627,28,40.97,-117.74,57.2,9.17
387,Ban Nahin,64,LA,1586662627,56,18.24,104.21,91.99,5.7
388,Ilulissat,86,GL,1586662556,68,69.22,-51.1,28.4,6.93
389,Mirny,40,RU,1586662627,59,62.54,113.96,37.4,17.9
390,Yokadouma,100,CM,1586662627,83,3.52,15.05,68.99,1.68
391,Assiniboia,100,CA,1586662627,76,49.63,-105.98,23.07,13.67
392,Sitka,20,US,1586662627,48,57.05,-135.33,44.6,1.54
393,Zasheyek,92,RU,1586662627,94,67.41,32.55,18.03,3.74
394,Acapulco de Juárez,5,MX,1586662335,88,16.86,-99.89,77.0,6.93
395,Fortuna,90,US,1586662627,87,40.6,-124.16,54.0,8.05
396,Olafsvik,51,IS,1586662627,88,64.89,-23.71,33.84,23.22
397,Darnah,36,LY,1586662627,67,32.77,22.64,58.68,14.12
398,Qaqortoq,100,GL,1586662627,33,60.72,-46.03,46.4,49.44
399,Kasongo,100,CD,1586662628,82,-4.45,26.67,69.03,3.13
400,Porto Santo,75,PT,1586662628,82,33.07,-16.34,60.8,13.87
401,São João da Barra,100,BR,1586662628,87,-21.64,-41.05,71.51,12.17
402,Krasnyy Chikoy,99,RU,1586662628,23,50.36,108.75,59.16,3.38
403,Flinders,0,AU,1586662628,30,-34.58,150.86,71.01,3.36
404,Usinsk,100,RU,1586662628,94,65.99,57.53,14.79,6.44
405,Mahébourg,40,MU,1586662628,83,-20.41,57.7,80.01,14.99
406,Yabēlo,56,ET,1586662628,56,4.88,38.08,58.69,6.06
407,Şabyā,20,SA,1586662628,74,17.15,42.63,82.4,3.36
408,Segovia,94,ES,1586662628,88,41.17,-4.0,52.0,6.46
409,Waingapu,10,ID,1586662628,69,-9.66,120.26,83.39,4.29
410,Tagusao,5,PH,1586662629,63,9.19,117.81,85.55,4.38
411,Urbana,90,US,1586662629,81,40.11,-88.21,51.01,13.87
412,Velsk,3,RU,1586662629,94,61.07,42.1,24.48,3.47
413,Lewiston,1,US,1586662629,59,44.1,-70.21,37.0,5.84
414,Iraray,1,PH,1586662629,54,8.99,118.05,87.87,7.34
415,Namatanai,98,PG,1586662629,71,-3.67,152.43,84.29,3.13
416,Grindavik,51,IS,1586662629,80,63.84,-22.43,35.6,1.12
417,Cururupu,100,BR,1586662355,91,-1.83,-44.87,78.08,4.05
418,Bontang,1,ID,1586662629,66,0.13,117.5,84.43,5.37
419,Kloulklubed,2,PW,1586662629,75,7.04,134.26,83.08,8.05
420,Abhā,58,SA,1586662629,82,18.22,42.51,62.6,2.51
421,Egvekinot,17,RU,1586662630,87,66.32,-179.17,19.51,0.4
422,Clarence Town,2,AU,1586662630,37,-32.58,151.78,72.0,6.93
423,Tsimmerbude,97,RU,1586662630,42,54.67,20.13,44.6,8.95
424,Manzhouli,0,CN,1586662630,19,49.6,117.43,63.37,10.11
425,Fort Nelson,20,CA,1586662585,27,58.81,-122.7,35.6,4.7
426,Isangel,20,VU,1586662630,55,-19.55,169.27,86.0,5.82
427,Adrar,0,MR,1586662630,21,20.5,-10.07,76.03,10.11
428,Pāsighāt,0,IN,1586662630,28,28.07,95.33,84.25,2.46
429,Vanimo,92,PG,1586662630,80,-2.67,141.3,83.73,5.99
430,Aquiraz,40,BR,1586662630,88,-3.9,-38.39,84.0,2.24
431,Dauphin,90,CA,1586662631,68,51.15,-100.05,26.6,10.29
432,Bitung,40,ID,1586662631,55,1.45,125.18,87.8,6.93
433,Dovolnoye,0,RU,1586662631,88,54.5,79.67,33.8,6.78
434,Amapá,100,BR,1586662631,94,1.0,-52.0,73.42,2.04
435,Elko,75,US,1586662344,32,41.0,-115.5,53.6,4.7
436,Mabaruma,98,GY,1586662631,74,8.2,-59.78,77.05,6.26
437,Goulburn,0,AU,1586662585,46,-34.75,149.72,64.0,1.01
438,Portland,20,US,1586662493,47,45.52,-122.68,57.2,9.17
439,Tautira,100,PF,1586662631,66,-17.73,-149.15,86.0,4.7
440,Águas Vermelhas,20,BR,1586662631,78,-15.75,-41.46,66.83,2.57
441,Jiayuguan City,100,CN,1586662631,16,39.82,98.3,53.06,4.81
442,Humaitá,100,BR,1586662631,94,-7.51,-63.02,74.75,3.31
443,Bartica,40,GY,1586662631,88,6.4,-58.62,77.0,6.93
444,Illintsi,44,UA,1586662631,75,49.1,29.22,32.0,4.47
445,Dalianwan,0,CN,1586662632,20,39.03,121.69,62.6,8.95
446,Kaeo,79,NZ,1586662632,89,-35.1,173.78,66.99,11.01
447,Lincoln,1,US,1586662548,71,40.8,-96.67,57.2,11.41
448,Kétou,32,BJ,1586662632,83,7.36,2.6,77.5,2.37
449,Strezhevoy,100,RU,1586662632,97,60.73,77.59,41.0,4.47
450,Salinas,90,US,1586662632,81,36.68,-121.66,57.0,6.93
451,Zwedru,95,LR,1586662632,89,6.07,-8.13,73.62,1.63
452,Cayenne,75,GF,1586662632,83,4.93,-52.33,78.8,8.41
453,Mitsamiouli,100,KM,1586662632,73,-11.38,43.28,83.82,8.01
454,Lokosovo,96,RU,1586662632,97,61.13,74.82,38.32,7.4
455,Havelock,1,US,1586662556,76,34.88,-76.9,61.0,3.36
456,Trairi,99,BR,1586662633,83,-3.28,-39.27,79.63,4.97
457,Kongolo,100,CD,1586662633,81,-5.38,27.0,68.88,3.27
458,Port Lincoln,100,AU,1586662458,57,-34.73,135.87,59.67,7.63
459,Cuamba,69,MZ,1586662633,81,-14.8,36.54,62.37,1.5
460,Nanortalik,100,GL,1586662633,76,60.14,-45.24,36.9,38.36
461,Pāveh,32,IR,1586662633,46,35.04,46.36,41.58,3.89
462,Moree,0,AU,1586662633,32,-29.47,149.85,69.8,3.36
463,Kitimat,20,CA,1586662633,26,54.05,-128.65,48.2,8.05
464,Takoradze,51,GH,1586662633,84,4.88,-1.76,80.46,3.6
465,De Aar,28,ZA,1586662633,34,-30.65,24.01,62.17,11.23
466,Sayyan,3,YE,1586662633,42,15.17,44.32,57.38,2.93
467,Dawson Creek,1,CA,1586662633,82,55.77,-120.24,32.0,5.82
468,Macenta,95,GN,1586662633,82,8.54,-9.47,69.12,0.89
469,Jieshi,0,CN,1586662569,52,22.81,115.83,70.0,4.0
470,Tyukhtet,0,RU,1586662634,59,56.54,89.3,41.77,8.97
471,Havøysund,100,NO,1586662634,68,71.0,24.66,28.4,4.7
472,Lüderitz,0,NA,1586662634,87,-26.65,15.16,57.2,8.05
473,Carballo,40,ES,1586662634,100,43.21,-8.69,55.0,1.12
474,Ca Mau,11,VN,1586662425,46,9.18,105.15,91.38,8.59
475,Dingle,23,PH,1586662634,56,11.0,122.67,87.64,6.91
476,Sept-Îles,20,CA,1586662568,54,50.2,-66.38,32.0,5.82
477,Nkhotakota,17,MW,1586662634,68,-12.93,34.3,73.0,9.1
478,Huarmey,0,PE,1586662634,72,-10.07,-78.15,75.13,7.14
479,Port Keats,93,AU,1586662634,59,-14.25,129.55,88.86,6.4
480,Baruun-Urt,0,MN,1586662634,19,46.68,113.28,56.62,10.96
481,Talcahuano,0,CL,1586662635,71,-36.72,-73.12,53.6,8.05
482,San Juan del Sur,55,NI,1586662635,73,11.25,-85.87,82.26,14.67
483,Tutóia,100,BR,1586662635,87,-2.76,-42.27,79.84,6.44
484,Farafangana,100,MG,1586662635,89,-22.82,47.83,72.66,4.72
485,Sikonge,100,TZ,1586662635,69,-5.63,32.77,62.4,3.91
486,Progreso,5,MX,1586662635,78,21.28,-89.67,82.0,3.36
487,Dubrovnik,21,HR,1586662480,33,42.65,18.09,62.6,11.41
488,Hambantota,16,LK,1586662635,74,6.12,81.12,83.28,9.6
489,Thunder Bay,5,CA,1586662635,55,48.4,-89.32,34.0,3.36
490,Tambura,100,SS,1586662635,78,5.6,27.47,70.74,3.33
491,Maceió,70,BR,1586662399,81,-9.67,-35.74,79.41,7.67
492,Ugoofaaru,10,MV,1586662635,68,5.67,73.0,85.46,7.36
493,Opuwo,10,NA,1586662636,60,-18.06,13.84,66.52,4.9
494,Poronaysk,95,RU,1586662636,78,49.22,143.12,37.36,1.79
495,Tlancualpican,0,MX,1586662636,19,18.43,-98.7,82.38,4.52
496,Vigía del Fuerte,97,CO,1586662636,93,6.58,-76.89,75.34,0.54
497,Kasese,100,UG,1586662636,55,0.18,30.08,68.59,1.14
498,Poyarkovo,0,RU,1586662636,41,49.6,128.68,57.58,9.89
499,Washington,1,US,1586662636,19,47.5,-120.5,50.0,8.05
500,Chirongui,40,YT,1586662636,70,-12.93,45.15,84.2,16.11
501,Northam,37,GB,1586662636,91,51.03,-4.22,52.0,4.0
502,Mandalgovi,41,MN,1586662636,22,45.76,106.27,49.19,16.91
503,Altamura,0,IT,1586662637,70,40.83,16.55,52.0,8.05
504,Emerald,0,AU,1586662637,21,-23.53,148.17,89.6,12.75
505,Yar-Sale,44,RU,1586662637,91,66.83,70.83,12.34,4.05
506,Burnie,73,AU,1586662637,67,-41.07,145.92,58.3,14.94
507,Richards Bay,1,ZA,1586662637,86,-28.78,32.04,69.67,12.35
508,Luanda,70,AO,1586662637,86,-8.84,13.23,78.15,3.2
509,Bay Roberts,5,CA,1586662624,95,47.6,-53.26,33.01,21.92
510,Šibenik,3,HR,1586662637,44,43.73,15.91,57.2,1.12
511,Puerto Peñasco,1,MX,1586662637,74,31.32,-113.53,62.01,7.0
512,Rio Brilhante,21,BR,1586662637,55,-21.8,-54.55,63.34,3.71
513,Rawson,0,AR,1586662638,40,-43.3,-65.1,54.82,5.53
514,Numan,96,NG,1586662638,40,9.47,12.03,80.19,0.98
515,Bama,87,NG,1586662638,37,11.52,13.69,72.25,3.96
516,Tamandaré,73,BR,1586662638,78,-8.76,-35.1,80.22,6.17
517,Mineral Wells,90,US,1586662638,93,32.81,-98.11,69.8,9.17
518,Chabahar,60,IR,1586662638,79,25.29,60.64,77.14,6.22
519,Krasnoarmeyskoye,100,RU,1586662638,62,52.72,50.03,42.76,11.92
520,Campos do Jordão,40,BR,1586662638,87,-22.74,-45.59,60.8,6.93
521,Pecos,1,US,1586662638,11,31.42,-103.49,73.4,11.41
522,Mujiayingzi,3,CN,1586662638,22,42.12,118.78,57.92,20.02
523,Marana,75,US,1586662551,76,32.44,-111.23,54.0,4.7
524,Hojāi,0,IN,1586662639,30,26.0,92.87,86.34,3.87
525,Kiryat Gat,40,IL,1586662639,82,31.61,34.76,55.4,2.24
526,Matelândia,0,BR,1586662639,93,-25.24,-54.0,59.0,2.24
527,Tongzi,84,CN,1586662639,49,28.78,105.09,64.94,2.68
528,Hamadan,20,IR,1586662639,93,34.8,48.51,35.6,4.7
529,Port Hardy,20,CA,1586662639,40,50.7,-127.42,51.8,8.05
530,Verkhnyaya Inta,99,RU,1586662639,93,65.98,60.31,18.21,4.59
531,Caucayá,26,CO,1586662639,91,-0.19,-74.78,73.4,1.45
532,Dover,1,US,1586662502,56,39.16,-75.52,48.2,1.36
533,Sonoita,28,MX,1586662639,58,31.85,-112.83,57.99,8.75
534,Qasigiannguit,100,GL,1586662639,68,68.82,-51.19,28.4,6.93
535,Nivala,90,FI,1586662639,73,63.92,24.97,25.0,1.99
536,Russell,1,US,1586662554,87,32.35,-85.2,60.8,4.99
537,Korsakovo,0,RU,1586662639,83,53.27,37.36,30.76,12.01
538,Vila Velha,90,BR,1586662640,88,-20.33,-40.29,73.99,6.93
539,Quatre Cocos,40,MU,1586662640,83,-20.21,57.76,80.01,14.99
540,Mitú,70,CO,1586662640,90,1.2,-70.17,73.38,0.36
541,Mackay,0,AU,1586662640,58,-21.15,149.2,88.0,11.41
542,Mariquita,100,CO,1586662640,69,5.2,-74.89,73.9,3.18
543,Daru,62,PG,1586662640,69,-9.08,143.21,85.21,9.53
544,Saint-François,16,FR,1586662640,86,46.42,3.91,48.99,2.24
545,Nioro,2,GM,1586662640,70,13.35,-15.75,70.59,6.15
546,‘Āhuimanu,75,US,1586662640,65,21.44,-157.84,82.4,14.99
547,Fremont,40,US,1586662640,81,37.55,-121.99,57.99,11.41
548,Sun Valley,75,US,1586662641,50,39.6,-119.78,63.0,14.99
549,Ampanihy,100,MG,1586662641,65,-24.7,44.75,71.64,5.44
550,Sarankhola,0,BD,1586662641,52,22.31,89.79,88.27,6.13
551,Bam,100,IR,1586662641,25,29.11,58.36,73.81,7.31
552,Batagay-Alyta,2,RU,1586662641,76,67.8,130.41,29.95,8.46
553,Winneba,22,GH,1586662641,78,5.35,-0.62,82.4,6.93
554,La Roche-sur-Yon,0,FR,1586662641,87,46.67,-1.43,51.8,4.7
555,Acajutla,55,SV,1586662641,86,13.59,-89.83,75.0,1.01
556,Avera,1,US,1586662642,62,33.19,-82.53,61.0,6.93
557,Okulovka,0,RU,1586662642,95,58.4,33.29,28.26,1.95
558,General Roca,70,AR,1586662642,66,-39.03,-67.58,55.4,11.32
559,Marzuq,0,YE,1586662642,52,14.4,46.47,69.64,4.43
560,Barguzin,97,RU,1586662642,60,53.62,109.62,44.19,5.99
561,Hokitika,100,NZ,1586662642,80,-42.72,170.97,59.4,20.02
562,Shubarshi,29,KZ,1586662642,57,48.59,57.19,43.74,7.87
563,Kīhei,40,US,1586662450,61,20.79,-156.47,80.6,12.75
564,Ormara,60,PK,1586662642,65,25.21,64.64,78.33,3.6
565,Soe,12,ID,1586662642,61,-9.86,124.28,78.46,3.06
